Time,,,,,,,A/C Mach,A/C Heading (deg),Weapon LAT (deg),,Weapon ALT (ft),Weapon Downtrack (ft),Weapon Crosstrack (ft),,,,Wpn Heading,Wpn Pitch,Wpn Roll,,S1SYSTM01500,S1SYSTM00505,Target LAT (deg),,Target ALT (ft),S1FCPTT004,S1FCPTT005,,S1STGT101107,Tgt Impact Angle,S1STGT101106,Tgt Impact Heading,S1STGT101108,Tgt Offset North,Tgt Offset East,Tgt Offset Down,S1STGT101004
274:07:05:15.529,,,,,,,0.889275,12.001904,31.853233,,20050.382813,55088.121094,269.153320,,,,12.376269,-0.727397,-2.994005,,0,1,31.999672,,0.000000,0.000000,0.000000,,0,59.995506,0,89.999748,1,0.000000,0.000000,0.000000,9
274:07:05:15.592,,,,,,,0.889275,12.001904,31.853386,,20050.505859,55030.417969,271.463196,,,,12.388923,-0.748024,-2.976966,,0,1,31.999672,,0.000000,0.000000,0.000000,,0,59.995506,0,89.999748,1,0.000000,0.000000,0.000000,9
274:07:05:15.655,,,,,,,0.889275,12.001904,31.853537,,20050.619141,54973.917969,273.964111,,,,12.376453,-0.711301,-2.972654,,0,1,31.999672,,0.000000,0.000000,0.000000,,0,59.995506,0,89.999748,1,0.000000,0.000000,0.000000,9
274:07:05:15.718,,,,,,,0.889563,11.848033,31.853687,,20050.730469,54917.410156,278.884247,,,,12.377636,-0.729881,-2.979538,,0,1,31.999672,,0.000000,0.000000,0.000000,,0,59.995506,0,89.999748,1,0.000000,0.000000,0.000000,9
274:07:05:15.781,,,,,,,0.889563,11.848033,31.853864,,20050.857422,54850.695313,288.890442,,,,12.386397,-0.675588,-2.968974,,0,1,31.999672,,0.000000,0.000000,0.000000,,0,59.995506,0,89.999748,1,0.000000,0.000000,0.000000,9
274:07:05:15.844,,,,,,,0.889563,11.848033,31.854015,,20050.964844,54794.218750,287.103638,,,,12.385439,-0.683141,-2.982784,,0,1,31.999672,,0.000000,0.000000,0.000000,,0,59.995506,0,89.999748,1,0.000000,0.000000,0.000000,9
274:07:05:15.907,,,,,,,0.889563,11.848033,31.854192,,20051.087891,54727.539063,290.295593,,,,12.399712,-0.649170,-2.972295,,0,1,31.999672,,0.000000,0.000000,0.000000,,0,59.995506,0,89.999748,1,0.000000,0.000000,0.000000,9
274:07:05:15.970,,,,,,,0.889563,11.848033,31.854343,,20051.191406,54671.023438,295.444916,,,,12.378797,-0.629026,-2.917637,,0,1,31.999672,,0.000000,0.000000,0.000000,,0,59.995506,0,89.999748,1,0.000000,0.000000,0.000000,9
274:07:05:16.033,,,,,,,0.889563,11.848033,31.854496,,20051.296875,54613.355469,291.383331,,,,12.390007,-0.611327,-2.915865,,0,1,31.999672,,0.000000,0.000000,0.000000,,0,59.995506,0,89.999748,1,0.000000,0.000000,0.000000,9
274:07:05:16.096,,,,,,,0.889563,11.848033,31.854646,,20051.404297,54556.851563,295.235168,,,,12.395855,-0.590732,-2.910150,,0,1,31.999672,,0.000000,0.000000,0.000000,,0,59.995506,0,89.999748,1,0.000000,0.000000,0.000000,9
274:07:05:16.159,,,,,,,0.889563,11.848033,31.854800,,20051.507813,54499.156250,295.423370,,,,12.398625,-0.579766,-2.849967,,0,1,31.999672,,0.000000,0.000000,0.000000,,0,59.995506,0,89.999748,1,0.000000,0.000000,0.000000,9
274:07:05:16.222,,,,,,,0.889563,11.848033,31.854974,,20051.636719,54433.675781,300.179291,,,,12.399720,-0.567082,-2.783459,,0,1,31.999672,,0.000000,0.000000,0.000000,,0,59.995506,0,89.999748,1,0.000000,0.000000,0.000000,9
274:07:05:16.285,,,,,,,0.889563,11.848033,31.855128,,20051.748047,54375.980469,300.813629,,,,12.395813,-0.546468,-2.708815,,0,1,31.999672,,0.000000,0.000000,0.000000,,0,59.995506,0,89.999748,1,0.000000,0.000000,0.000000,9
274:07:05:16.347,,,,,,,0.888579,11.869015,31.855302,,20051.888672,54310.558594,294.644653,,,,12.392217,-0.537801,-2.653989,,0,1,31.999672,,0.000000,0.000000,0.000000,,0,59.995506,0,89.999748,1,0.000000,0.000000,0.000000,9
274:07:05:16.410,,,,,,,0.888579,11.869015,31.855456,,20052.013672,54252.835938,300.100647,,,,12.397117,-0.545087,-2.605576,,0,1,31.999672,,0.000000,0.000000,0.000000,,0,59.995506,0,89.999748,1,0.000000,0.000000,0.000000,9
274:07:05:16.473,,,,,,,0.888579,11.869015,31.855606,,20052.148438,54196.375000,295.929871,,,,12.402359,-0.521529,-2.547435,,0,1,31.999672,,0.000000,0.000000,0.000000,,0,59.995506,0,89.999748,1,0.000000,0.000000,0.000000,9
274:07:05:16.536,,,,,,,0.888579,11.869015,31.855756,,20052.369141,54139.890625,295.653076,,,,12.383208,-0.538722,-2.557297,,0,1,31.999672,,0.000000,0.000000,0.000000,,0,59.995506,0,89.999748,1,0.000000,0.000000,0.000000,9
274:07:05:16.599,,,,,,,0.888579,11.869015,31.855910,,20052.529297,54082.183594,297.386688,,,,12.395128,-0.530163,-2.607998,,0,1,31.999672,,0.000000,0.000000,0.000000,,0,59.995506,0,89.999748,1,0.000000,0.000000,0.000000,9
274:07:05:16.662,,,,,,,0.888579,11.869015,31.856084,,20052.728516,54016.714844,299.637390,,,,12.380176,-0.528831,-2.661231,,0,1,31.999672,,0.000000,0.000000,0.000000,,0,59.995506,0,89.999748,1,0.000000,0.000000,0.000000,9
274:07:05:16.725,,,,,,,0.888579,11.869015,31.856238,,20052.914063,53959.039063,296.711639,,,,12.384588,-0.566091,-2.761365,,0,1,31.999672,,0.000000,0.000000,0.000000,,0,59.995506,0,89.999748,1,0.000000,0.000000,0.000000,9
274:07:05:16.788,,,,,,,0.888579,11.869015,31.856412,,20053.136719,53893.613281,292.454590,,,,12.387074,-0.540967,-2.904186,,0,1,31.999672,,0.000000,0.000000,0.000000,,0,59.995506,0,89.999748,1,0.000000,0.000000,0.000000,9
274:07:05:16.851,,,,,,,0.888579,11.869015,31.856566,,20053.337891,53835.917969,293.434387,,,,12.380692,-0.547067,-3.089509,,0,1,31.999672,,0.000000,0.000000,0.000000,,0,59.995506,0,89.999748,1,0.000000,0.000000,0.000000,9
274:07:05:16.914,,,,,,,0.888579,11.869015,31.856716,,20053.546875,53779.679688,295.444092,,,,12.407711,-0.544997,-3.298791,,0,1,31.999672,,0.000000,0.000000,0.000000,,0,59.995506,0,89.999748,1,0.000000,0.000000,0.000000,9
274:07:05:16.977,,,,,,,0.888579,11.869015,31.856866,,20053.757813,53723.179688,298.092834,,,,12.419487,-0.560130,-3.475088,,0,1,31.999672,,0.000000,0.000000,0.000000,,0,59.995506,0,89.999748,1,0.000000,0.000000,0.000000,9
274:07:05:17.040,,,,,,,0.888579,11.869015,31.857044,,20054.001953,53656.484375,303.778259,,,,12.411912,-0.550609,-3.690413,,0,1,31.999672,,0.000000,0.000000,0.000000,,0,59.995506,0,89.999748,1,0.000000,0.000000,0.000000,9
274:07:05:17.103,,,,,,,0.888579,11.869015,31.857194,,20054.212891,53599.984375,306.394287,,,,12.392640,-0.572425,-3.830257,,0,1,31.999672,,0.000000,0.000000,0.000000,,0,59.995506,0,89.999748,1,0.000000,0.000000,0.000000,9
274:07:05:17.166,,,,,,,0.888579,11.869015,31.857372,,20054.453125,53533.273438,315.467407,,,,12.388673,-0.565934,-4.036377,,0,1,31.999672,,0.000000,0.000000,0.000000,,0,59.995506,0,89.999748,1,0.000000,0.000000,0.000000,9
274:07:05:17.229,,,,,,,0.888579,11.869015,31.857522,,20054.652344,53476.753906,320.526367,,,,12.398492,-0.594932,-4.152497,,0,1,31.999672,,0.000000,0.000000,0.000000,,0,59.995506,0,89.999748,1,0.000000,0.000000,0.000000,9
274:07:05:17.292,,,,,,,0.888579,11.869015,31.857676,,20054.845703,53419.027344,325.838196,,,,12.397190,-0.603076,-4.228129,,0,1,31.999672,,0.000000,0.000000,0.000000,,0,59.995506,0,89.999748,1,0.000000,0.000000,0.000000,9
274:07:05:17.355,,,,,,,0.888579,11.869015,31.857826,,20055.029297,53362.554688,324.355988,,,,12.395074,-0.579113,-4.287841,,0,1,31.999672,,0.000000,0.000000,0.000000,,0,59.995506,0,89.999748,1,0.000000,0.000000,0.000000,9
274:07:05:17.418,,,,,,,0.888579,11.869015,31.857976,,20055.205078,53306.031250,330.039063,,,,12.389156,-0.614556,-4.343149,,0,1,31.999672,,0.000000,0.000000,0.000000,,0,59.995506,0,89.999748,1,0.000000,0.000000,0.000000,9
274:07:05:17.481,,,,,,,0.888579,11.869015,31.858154,,20055.400391,53239.351563,333.045746,,,,12.396976,-0.598531,-4.344602,,0,1,31.999672,,0.000000,0.000000,0.000000,,0,59.995506,0,89.999748,1,0.000000,0.000000,0.000000,9
274:07:05:17.544,,,,,,,0.888579,11.869015,31.858304,,20055.556641,53182.832031,338.549866,,,,12.385889,-0.632214,-4.296748,,0,1,31.999672,,0.000000,0.000000,0.000000,,0,59.995506,0,89.999748,1,0.000000,0.000000,0.000000,9
274:07:05:17.607,,,,,,,0.887694,11.917974,31.858482,,20055.748047,53116.144531,342.453552,,,,12.370516,-0.601371,-4.236017,,0,1,31.999672,,0.000000,0.000000,0.000000,,0,59.995506,0,89.999748,1,0.000000,0.000000,0.000000,9
274:07:05:17.670,,,,,,,0.887694,11.917974,31.858632,,20055.890625,53059.660156,342.304871,,,,12.335814,-0.607523,-4.178245,,0,1,31.999672,,0.000000,0.000000,0.000000,,0,59.995506,0,89.999748,1,0.000000,0.000000,0.000000,9
274:07:05:17.733,,,,,,,0.887694,11.917974,31.858782,,20056.031250,53003.136719,348.047760,,,,12.333057,-0.601687,-4.147666,,0,1,31.999672,,0.000000,0.000000,0.000000,,0,59.995506,0,89.999748,1,0.000000,0.000000,0.000000,9
274:07:05:17.796,,,,,,,0.887694,11.917974,31.858936,,20056.164063,52945.394531,355.619507,,,,12.324699,-0.589684,-4.036307,,0,1,31.999672,,0.000000,0.000000,0.000000,,0,59.995506,0,89.999748,1,0.000000,0.000000,0.000000,9
274:07:05:17.859,,,,,,,0.887694,11.917974,31.859086,,20056.298828,52889.156250,357.702911,,,,12.310717,-0.562753,-3.950237,,0,1,31.999672,,0.000000,0.000000,0.000000,,0,59.995506,0,89.999748,1,0.000000,0.000000,0.000000,9
274:07:05:17.922,,,,,,,0.887694,11.917974,31.859264,,20056.458984,52822.449219,364.096191,,,,12.292753,-0.551205,-3.869236,,0,1,31.999672,,0.000000,0.000000,0.000000,,0,59.995506,0,89.999748,1,0.000000,0.000000,0.000000,9
274:07:05:17.985,,,,,,,0.887694,11.917974,31.859414,,20056.595703,52765.960938,364.431976,,,,12.289040,-0.554926,-3.783149,,0,1,31.999672,,0.000000,0.000000,0.000000,,0,59.995506,0,89.999748,1,0.000000,0.000000,0.000000,9
274:07:05:18.048,,,,,,,0.887694,11.917974,31.859592,,20056.757813,52699.234375,373.609253,,,,12.276079,-0.511765,-3.707962,,0,1,31.999672,,0.000000,0.000000,0.000000,,0,59.995506,0,89.999748,1,0.000000,0.000000,0.000000,9
274:07:05:18.111,,,,,,,0.887694,11.917974,31.859742,,20056.900391,52642.742188,374.837341,,,,12.260804,-0.502150,-3.552320,,0,1,31.999672,,0.000000,0.000000,0.000000,,0,59.995506,0,89.999748,1,0.000000,0.000000,0.000000,9
274:07:05:18.174,,,,,,,0.887694,11.917974,31.859892,,20057.048828,52586.277344,371.801239,,,,12.264502,-0.475169,-3.463549,,0,1,31.999672,,0.000000,0.000000,0.000000,,0,59.995506,0,89.999748,1,0.000000,0.000000,0.000000,9
274:07:05:18.237,,,,,,,0.887694,11.806068,31.860046,,20057.201172,52528.523438,380.513336,,,,12.255364,-0.466799,-3.391001,,0,1,31.999672,,0.000000,0.000000,0.000000,,0,59.995506,0,89.999748,1,0.000000,0.000000,0.000000,9
274:07:05:18.300,,,,,,,0.887694,11.806068,31.860220,,20057.382813,52463.070313,379.661011,,,,12.246929,-0.436078,-3.269348,,0,1,31.999672,,0.000000,0.000000,0.000000,,0,59.995506,0,89.999748,1,0.000000,0.000000,0.000000,9
274:07:05:18.363,,,,,,,0.887694,11.806068,31.860398,,20057.576172,52396.394531,382.469147,,,,12.235134,-0.438653,-3.111639,,0,1,31.999672,,0.000000,0.000000,0.000000,,0,59.995506,0,89.999748,1,0.000000,0.000000,0.000000,9
274:07:05:18.426,,,,,,,0.887694,11.806068,31.860524,,20057.718750,52349.078125,389.741241,,,,12.224433,-0.412762,-3.014000,,0,1,31.999672,,0.000000,0.000000,0.000000,,0,59.995506,0,89.999748,1,0.000000,0.000000,0.000000,9
274:07:05:18.489,,,,,,,0.887694,11.806068,31.860698,,20057.931641,52283.632813,389.078369,,,,12.220907,-0.393003,-2.891788,,0,1,31.999672,,0.000000,0.000000,0.000000,,0,59.995506,0,89.999748,1,0.000000,0.000000,0.000000,9
274:07:05:18.552,,,,,,,0.887694,11.806068,31.860852,,20058.125000,52225.917969,391.862366,,,,12.200069,-0.406460,-2.794541,,0,1,31.999672,,0.000000,0.000000,0.000000,,0,59.995506,0,89.999748,1,0.000000,0.000000,0.000000,9
274:07:05:18.615,,,,,,,0.887694,11.806068,31.861002,,20058.306641,52169.421875,393.274994,,,,12.200129,-0.368308,-2.695381,,0,1,31.999672,,0.000000,0.000000,0.000000,,0,59.995506,0,89.999748,1,0.000000,0.000000,0.000000,9
274:07:05:18.678,,,,,,,0.887694,11.806068,31.861152,,20058.515625,52112.933594,393.504181,,,,12.195549,-0.380920,-2.564724,,0,1,31.999672,,0.000000,0.000000,0.000000,,0,59.995506,0,89.999748,1,0.000000,0.000000,0.000000,9
274:07:05:18.741,,,,,,,0.887694,11.806068,31.861330,,20058.773438,52046.222656,399.853546,,,,12.190787,-0.362943,-2.489501,,0,1,31.999672,,0.000000,0.000000,0.000000,,0,59.995506,0,89.999748,1,0.000000,0.000000,0.000000,9
274:07:05:18.804,,,,,,,0.887694,11.806068,31.861480,,20059.003906,51990.015625,397.333557,,,,12.198468,-0.360404,-2.408494,,0,1,31.999672,,0.000000,0.000000,0.000000,,0,59.995506,0,89.999748,1,0.000000,0.000000,0.000000,9
274:07:05:18.867,,,,,,,0.886710,11.806068,31.861658,,20059.285156,51923.308594,402.995148,,,,12.202335,-0.369344,-2.270432,,0,1,31.999672,,0.000000,0.000000,0.000000,,0,59.995506,0,89.999748,1,0.000000,0.000000,0.000000,9
274:07:05:18.930,,,,,,,0.886710,11.806068,31.861808,,20059.535156,51866.824219,402.634308,,,,12.193877,-0.360618,-2.159267,,0,1,31.999672,,0.000000,0.000000,0.000000,,0,59.995506,0,89.999748,1,0.000000,0.000000,0.000000,9
274:07:05:18.992,,,,,,,0.886710,11.806068,31.861958,,20059.796875,51810.371094,399.137238,,,,12.196494,-0.367013,-2.090569,,0,1,31.999672,,0.000000,0.000000,0.000000,,0,59.995506,0,89.999748,1,0.000000,0.000000,0.000000,9
274:07:05:19.055,,,,,,,0.886710,11.806068,31.862112,,20060.070313,51752.648438,403.356323,,,,12.195011,-0.377977,-2.043315,,0,1,31.999672,,0.000000,0.000000,0.000000,,0,59.995506,0,89.999748,1,0.000000,0.000000,0.000000,9
274:07:05:19.118,,,,,,,0.886710,11.806068,31.862262,,20060.351563,51696.183594,400.145020,,,,12.193838,-0.383371,-1.981377,,0,1,31.999672,,0.000000,0.000000,0.000000,,0,59.995506,0,89.999748,1,0.000000,0.000000,0.000000,9
274:07:05:19.181,,,,,,,0.886710,11.806068,31.862436,,20060.687500,51630.722656,400.713226,,,,12.196065,-0.386105,-1.891377,,0,1,31.999672,,0.000000,0.000000,0.000000,,0,59.995506,0,89.999748,1,0.000000,0.000000,0.000000,9
274:07:05:19.244,,,,,,,0.886710,11.806068,31.862590,,20060.986328,51573.296875,400.033752,,,,12.195251,-0.402980,-1.871493,,0,1,31.999672,,0.000000,0.000000,0.000000,,0,59.995506,0,89.999748,1,0.000000,0.000000,0.000000,9
274:07:05:19.307,,,,,,,0.886710,11.806068,31.862764,,20061.343750,51507.894531,393.853180,,,,12.207289,-0.407274,-1.889811,,0,1,31.999672,,0.000000,0.000000,0.000000,,0,59.995506,0,89.999748,1,0.000000,0.000000,0.000000,9
274:07:05:19.370,,,,,,,0.886710,11.806068,31.862918,,20061.658203,51450.207031,392.533325,,,,12.198688,-0.424277,-1.889628,,0,1,31.999672,,0.000000,0.000000,0.000000,,0,59.995506,0,89.999748,1,0.000000,0.000000,0.000000,9
274:07:05:19.433,,,,,,,0.886710,11.806068,31.863068,,20061.976563,51393.667969,399.429596,,,,12.184210,-0.426813,-1.888906,,0,1,31.999672,,0.000000,0.000000,0.000000,,0,59.995506,0,89.999748,1,0.000000,0.000000,0.000000,9
274:07:05:19.496,,,,,,,0.885922,11.715145,31.863218,,20062.300781,51337.210938,395.220642,,,,12.199162,-0.436475,-1.921149,,0,1,31.999672,,0.000000,-448.000000,0.000000,,0,59.995506,0,89.999748,1,0.000000,0.000000,0.000000,9
274:07:05:19.559,,,,,,,0.885922,11.715145,31.863369,,20062.630859,51281.023438,390.582947,,,,12.207898,-0.470457,-2.011591,,0,1,31.999672,,0.000000,0.000000,0.000000,,0,59.995506,0,89.999748,1,0.000000,0.000000,0.000000,9
274:07:05:19.622,,,,,,,0.885922,11.715145,31.863546,,20063.017578,51214.300781,398.443695,,,,12.219558,-0.445294,-2.103659,,0,1,31.999672,,0.000000,0.000000,0.000000,,0,59.995506,0,89.999748,1,0.000000,0.000000,0.000000,9
274:07:05:19.685,,,,,,,0.885922,11.715145,31.863696,,20063.353516,51157.828125,397.428223,,,,12.216825,-0.467545,-2.149138,,0,1,31.999672,,0.000000,0.000000,0.000000,,0,59.995506,0,89.999748,1,0.000000,0.000000,0.000000,9
274:07:05:19.748,,,,,,,0.885922,11.715145,31.863874,,20063.837891,51091.105469,404.581146,,,,12.228467,-0.477729,-2.217403,,0,2,31.999672,,0.000000,0.000000,0.000000,,0,59.995506,0,89.999748,1,0.000000,0.000000,0.000000,9
274:07:05:19.811,,,,,,,0.885922,11.715145,31.864024,,20064.164063,51034.671875,398.030334,,,,12.223306,-0.457175,-2.263094,,0,2,31.999672,,0.000000,0.000000,0.000000,,0,59.995506,0,89.999748,1,0.000000,0.000000,0.000000,9
274:07:05:19.874,,,,,,,0.885922,11.715145,31.864175,,20064.484375,50978.144531,403.450745,,,,12.230852,-0.488008,-2.273287,,0,2,31.999672,,0.000000,0.000000,0.000000,,0,59.995506,0,89.999748,1,0.000000,0.000000,0.000000,9
274:07:05:19.937,,,,,,,0.885922,11.715145,31.864325,,20064.798828,50921.925781,402.622772,,,,12.239643,-0.490236,-2.259861,,0,2,31.999672,,0.000000,0.000000,0.000000,,0,59.995506,0,89.999748,1,0.000000,0.000000,0.000000,9
274:07:05:20.000,,,,,,,0.885922,11.715145,31.864502,,20065.156250,50855.253906,404.160248,,,,12.228641,-0.487764,-2.215150,,0,2,31.999672,,0.000000,0.000000,0.000000,,0,59.995506,0,89.999748,1,0.000000,0.000000,0.000000,9
274:07:05:20.063,,,,,,,0.885922,11.715145,31.864653,,20065.462891,50798.753906,406.008240,,,,12.235329,-0.535935,-2.157630,,0,2,31.999672,,0.000000,0.000000,0.000000,,0,59.995506,0,89.999748,1,0.000000,0.000000,0.000000,9
274:07:05:20.126,,,,,,,0.885922,11.715145,31.864830,,20065.808594,50732.085938,406.189850,,,,12.241005,-0.530563,-2.073249,,0,2,31.999672,,0.000000,0.000000,0.000000,,0,59.995506,0,89.999748,1,0.000000,0.000000,0.000000,9
274:07:05:20.189,,,,,,,0.885922,11.715145,31.864981,,20066.101563,50675.613281,404.897980,,,,12.256997,-0.566055,-1.994543,,0,2,31.999672,,0.000000,0.000000,0.000000,,0,59.995506,0,89.999748,1,0.000000,0.000000,0.000000,9
274:07:05:20.252,,,,,,,0.885922,11.715145,31.865131,,20066.390625,50619.109375,407.099396,,,,12.253131,-0.596446,-1.902427,,0,2,31.999672,,0.000000,0.000000,0.000000,,0,59.995506,0,89.999748,1,0.000000,0.000000,0.000000,9
274:07:05:20.315,,,,,,,0.885922,11.715145,31.865285,,20066.669922,50561.683594,406.092834,,,,12.261684,-0.613939,-1.799667,,0,2,31.999672,,0.000000,0.000000,0.000000,,0,59.995506,0,89.999748,1,0.000000,0.000000,0.000000,9
274:07:05:20.378,,,,,,,0.885922,11.715145,31.865435,,20066.945313,50505.195313,406.323517,,,,12.247362,-0.662682,-1.708940,,0,2,31.999672,,0.000000,0.000000,0.000000,,0,59.995506,0,89.999748,1,0.000000,0.000000,0.000000,9
274:07:05:20.441,,,,,,,0.885922,11.715145,31.865609,,20067.253906,50439.750000,405.654083,,,,12.238323,-0.709309,-1.615533,,0,2,31.999672,,0.000000,0.000000,0.000000,,0,59.995506,0,89.999748,1,0.000000,0.000000,0.000000,9
274:07:05:20.504,,,,,,,0.885922,11.715145,31.865763,,20067.507813,50382.105469,400.125793,,,,12.250706,-0.753994,-1.522138,,0,2,31.999672,,0.000000,0.000000,0.000000,,0,59.995506,0,89.999748,1,0.000000,0.000000,0.000000,9
274:07:05:20.567,,,,,,,0.885922,11.715145,31.865937,,20067.787109,50316.636719,401.277924,,,,12.239352,-0.802167,-1.428377,,0,2,31.999672,,0.000000,0.000000,0.000000,,0,59.995506,0,89.999748,1,0.000000,0.000000,0.000000,9
274:07:05:20.630,,,,,,,0.885922,11.715145,31.866087,,20068.011719,50260.386719,404.303528,,,,12.219461,-0.835015,-1.357590,,0,2,31.999672,,0.000000,0.000000,0.000000,,0,59.995506,0,89.999748,1,0.000000,0.000000,0.000000,9
274:07:05:20.693,,,,,,,0.885922,11.715145,31.866241,,20068.224609,50202.746094,398.046570,,,,12.217996,-0.869189,-1.319593,,0,2,31.999672,,0.000000,0.000000,0.000000,,0,59.995506,0,89.999748,1,0.000000,0.000000,0.000000,9
274:07:05:20.756,,,,,,,0.885926,11.764104,31.866391,,20068.421875,50146.253906,398.723267,,,,12.215638,-0.911959,-1.291324,,0,2,31.999672,,0.000000,0.000000,0.000000,,0,59.995506,0,89.999748,1,0.000000,0.000000,0.000000,9
274:07:05:20.819,,,,,,,0.885926,11.764104,31.866541,,20068.599609,50089.789063,396.539215,,,,12.210731,-0.931943,-1.265320,,0,2,31.999672,,0.000000,0.000000,0.000000,,0,59.995506,0,89.999748,1,0.000000,0.000000,0.000000,9
274:07:05:20.882,,,,,,,0.885926,11.764104,31.866692,,20068.482422,50033.167969,412.888336,,,,12.325915,-0.986967,-1.147872,,0,4,31.999672,,0.000000,0.000000,0.000000,,0,59.995506,0,89.999748,1,0.000000,0.000000,0.000000,9
274:07:05:20.945,,,,,,,0.885926,11.764104,178.924838,,46695.687500,-31650928.000000,-93364408.000000,,,,-29.524788,-51.253201,13.708355,,0,4,31.999672,,0.000000,0.000000,0.000000,,0,59.995506,0,89.999748,1,0.000000,0.000000,0.000000,9
274:07:05:21.008,,,,,,,0.885926,11.764104,193.248769,,7637.442871,-78402752.000000,27096192.000000,,,,-38.659565,90.000000,95.276642,,0,4,31.999672,,0.000000,704.000000,0.000000,,0,59.995506,0,89.999748,1,0.000000,0.000000,0.000000,9
274:07:05:21.071,,,,,,,0.885926,11.764104,31.867194,,20066.679688,49845.933594,-245.621475,,,,16.192381,-7.328234,1.034019,,0,4,31.999672,,0.000000,0.000000,57.875000,,0,59.995506,0,89.999748,1,0.000000,0.000000,0.000000,9
274:07:05:21.134,,,,,,,0.885926,11.764104,31.867320,,20066.082031,49798.386719,-252.058960,,,,17.452141,-10.472286,0.944627,,0,4,31.999672,,0.000000,-1760.000000,0.000000,,0,59.995506,0,89.999748,1,0.000000,0.000000,0.000000,9
274:07:05:21.197,,,,,,,0.885926,11.764104,31.867470,,20065.234375,49740.832031,442.411896,,,,18.213318,-14.845790,-0.239374,,0,4,31.999672,,0.000000,-169.812500,57.875000,,0,59.995506,0,89.999748,1,0.000000,0.000000,0.000000,9
274:07:05:21.260,,,,,,,0.885926,11.764104,31.867672,,20063.761719,49665.722656,379.541229,,,,20.406584,-20.989088,-3.656881,,0,4,31.999672,,0.000000,0.000000,12.000000,,0,59.995506,0,89.999748,1,0.000000,0.000000,0.000000,9
274:07:05:21.323,,,,,,,0.885926,11.764104,31.867822,,20062.296875,49609.820313,293.928192,,,,21.749014,-25.087585,-8.077744,,0,4,31.999672,,0.000000,0.000000,12.000000,,0,59.995506,0,89.999748,1,0.000000,0.000000,0.000000,9
274:07:05:21.386,,,,,,,0.884745,11.764104,31.867972,,20060.453125,-9384026.000000,10333403.000000,,,,22.602551,-28.330883,-15.433476,,0,4,0.000000,,15010.593750,1650.062500,0.000000,,0,0.000000,0,180.000000,1,27.887138,0.000000,14071.522461,9
274:07:05:21.449,,,,,,,0.884745,11.764104,161.268867,,28343.484375,73694544.000000,-36164416.000000,,,,157.095123,90.000000,155.348862,,0,4,0.000000,,15010.593750,0.000000,0.000000,,0,0.000000,0,180.000000,1,27.887138,0.000000,14071.522461,9
274:07:05:21.512,,,,,,,0.884745,11.764104,31.868293,,20054.917969,-10276984.000000,9445877.000000,,,,148.480133,19.192276,157.108582,,0,4,0.000000,,15010.593750,0.000000,0.000000,,0,0.000000,0,180.000000,1,27.887138,0.000000,14071.522461,9
274:07:05:21.575,,,,,,,0.884745,11.764104,31.868443,,20051.585938,-9336000.000000,10376945.000000,,,,23.837273,-27.007984,-37.002201,,0,4,0.000000,,15010.593750,234.937500,-335.625000,,0,0.000000,0,180.000000,1,27.887138,0.000000,14071.522461,9
274:07:05:21.638,,,,,,,0.884745,11.764104,31.868590,,-38363.394531,21325540.000000,-41904520.000000,,,,90.987785,90.000000,113.660820,,0,4,0.000000,,15010.593750,57.875000,1854.875000,,0,0.000000,0,180.000000,1,27.887138,0.000000,14071.522461,9
274:07:05:21.700,,,,,,,0.884745,11.764104,31.868761,,20042.992188,-9142088.000000,10548266.000000,,,,24.183008,-14.254154,-34.336891,,0,4,0.000000,,15010.593750,57.875000,1854.875000,,0,0.000000,0,180.000000,1,27.887138,0.000000,14071.522461,9
274:07:05:21.763,,,,,,,0.884745,11.764104,31.868908,,20038.626953,-9116998.000000,10569999.000000,,,,23.158489,-7.508413,-32.861710,,0,4,0.000000,,15010.593750,57.875000,1854.875000,,0,0.000000,0,180.000000,1,27.887138,0.000000,14071.522461,9
274:07:05:21.826,,,,,,,0.884745,11.764104,31.869079,,20033.414063,-9097245.000000,10587050.000000,,,,20.864880,-0.380446,-31.185219,,0,4,0.000000,,15010.593750,-288.000000,0.000000,,0,0.000000,0,180.000000,1,27.887138,0.000000,14071.522461,9
274:07:05:21.889,,,,,,,0.884745,11.764104,31.869226,,20028.964844,-9252852.000000,10451366.000000,,,,18.014675,4.093368,-29.802368,,0,4,0.000000,,15010.593750,0.000000,0.000000,,0,0.000000,0,180.000000,1,27.887138,0.000000,14071.522461,9
274:07:05:21.952,,,,,,,0.884745,11.764104,31.869372,,20024.640625,-9270643.000000,10435628.000000,,,,17.003651,5.992871,-27.673069,,0,4,0.000000,,15010.593750,0.000000,0.000000,,0,0.000000,0,180.000000,1,27.887138,0.000000,14071.522461,9
274:07:05:22.015,,,,,,,0.884745,11.764104,31.869519,,20020.476563,48970.769531,-282.777679,,,,17.285439,5.010408,-24.453829,,0,4,31.999672,,0.000000,0.000000,0.000000,,0,59.995506,0,89.999748,1,0.000000,0.000000,0.000000,9
274:07:05:22.078,,,,,,,0.884745,11.764104,31.869666,,20016.421875,48915.625000,-258.779694,,,,18.365231,1.709555,-21.106539,,0,4,31.999672,,0.000000,0.000000,0.000000,,0,59.995506,0,89.999748,1,0.000000,0.000000,0.000000,9
274:07:05:22.141,,,,,,,0.884745,11.764104,31.869837,,20011.701172,48851.332031,-267.533203,,,,20.152079,-3.741592,-18.055044,,0,4,31.999672,,0.000000,0.000000,0.000000,,0,59.995506,0,89.999748,1,0.000000,0.000000,0.000000,9
274:07:05:22.204,,,,,,,0.884745,11.764104,31.870008,,20006.847656,48786.632813,-340.472595,,,,85.782021,-90.000000,14.276289,,0,4,31.999672,,0.000000,0.000000,0.000000,,0,59.995506,0,89.999748,1,0.000000,0.000000,0.000000,9
274:07:05:22.267,,,,,,,0.884745,11.764104,31.870154,,20002.484375,48719.324219,-1123.855347,,,,23.594620,-14.197881,-18.700533,,0,4,31.999672,,0.000000,0.000000,0.000000,,0,59.995506,0,89.999748,1,0.000000,0.000000,0.000000,9
274:07:05:22.330,,,,,,,0.884745,11.764104,160.535482,,1397.184204,-41749484.000000,-41844976.000000,,,,175.497437,-52.294319,-11.302252,,0,4,31.999672,,0.000000,1200.000000,0.000000,,0,59.995506,0,89.999748,1,0.000000,0.000000,0.000000,9
274:07:05:22.393,,,,,,,0.884745,11.764104,31.870445,,19992.953125,-43112.503906,22483.365234,,,,-130.144012,-20.174606,-27.597500,,0,4,31.999672,,0.000000,0.000000,0.000000,,0,59.995506,0,89.999748,1,0.000000,0.000000,0.000000,9
274:07:05:22.456,,,,,,,0.884745,11.764104,31.870592,,19987.695313,48562.710938,-674.450562,,,,22.261389,-20.723318,-32.347343,,0,4,31.999672,,0.000000,1024.000000,0.000000,,0,59.995506,0,89.999748,1,0.000000,0.000000,0.000000,9
274:07:05:22.519,,,,,,,0.884745,11.764104,31.870738,,19982.103516,48506.542969,-735.382507,,,,21.149319,-19.578207,-35.692654,,0,4,31.999672,,0.000000,0.000000,0.000000,,0,59.995506,0,89.999748,1,0.000000,0.000000,0.000000,9
274:07:05:22.582,,,,,,,0.884745,11.764104,31.870906,,19975.226563,48442.175781,-801.842590,,,,19.545732,-16.816292,-37.276939,,0,4,31.999672,,0.000000,0.000000,0.000000,,0,59.995506,0,89.999748,1,0.000000,0.000000,0.000000,9
274:07:05:22.645,,,,,,,-0.325610,11.764104,31.871053,,19969.117188,48385.875000,-846.323669,,,,17.905624,-14.062319,-36.549942,,0,4,31.999672,,0.000000,0.000000,0.000000,,0,59.995506,0,89.999748,1,0.000000,0.000000,0.000000,9
274:07:05:22.708,,,,,,,-0.325610,11.764104,31.871220,,19961.824219,46827.390625,11957.524414,,,,16.083052,-11.235894,-33.572041,,0,4,31.999672,,0.000000,0.000000,0.000000,,0,59.995506,0,89.999748,1,0.000000,0.000000,0.000000,9
274:07:05:22.771,,,,,,,-0.325610,11.764104,31.871363,,19955.498047,48269.324219,-797.190552,,,,15.210539,-9.772409,-30.250921,,0,4,31.999672,,0.000000,0.000000,0.000000,,0,59.995506,0,89.999748,1,0.000000,0.000000,0.000000,9
274:07:05:22.834,,,,,,,-0.325610,11.764104,31.871510,,19949.132813,48214.261719,-767.423889,,,,15.027202,-9.439810,-27.295511,,0,4,31.999672,,0.000000,0.000000,0.000000,,0,59.995506,0,89.999748,1,0.000000,0.000000,0.000000,9
274:07:05:22.897,,,,,,,-0.325610,11.764104,31.871654,,19942.697266,48124.835938,-887.342651,,,,15.269282,-9.929052,-25.208923,,0,4,31.999672,,0.000000,0.000000,0.000000,,0,59.995506,0,89.999748,1,0.000000,0.000000,0.000000,9
274:07:05:22.960,,,,,,,-0.325610,11.764104,146.463407,,19933.957031,-40104124.000000,11533725.000000,,,,16.615273,-11.147827,-24.243734,,0,4,31.999672,,0.000000,-1600.000000,0.000000,,0,59.995506,0,89.999748,1,0.000000,0.000000,0.000000,9
274:07:05:23.023,,,,,,,-0.325610,11.764104,31.871968,,19928.361328,48024.269531,-1492.593750,,,,16.790112,-11.780572,-24.573732,,0,4,31.999672,,0.000000,-768.000000,0.000000,,0,59.995506,0,89.999748,1,0.000000,0.000000,0.000000,9
274:07:05:23.086,,,,,,,-0.325610,11.764104,31.872135,,19920.326172,47977.339844,-824.148071,,,,15.984250,-12.127523,-25.029701,,0,4,31.999672,,0.000000,0.000000,0.000000,,0,59.995506,0,89.999748,1,0.000000,0.000000,0.000000,9
274:07:05:23.149,,,,,,,-0.325610,11.764104,31.872282,,19913.261719,47921.468750,-842.668823,,,,15.876032,-12.041145,-24.921793,,0,4,31.999672,,0.000000,1696.000000,0.000000,,0,59.995506,0,89.999748,1,0.000000,0.000000,0.000000,9
274:07:05:23.212,,,,,,,-0.325610,11.764104,31.872402,,19907.255859,47876.097656,-857.531128,,,,15.710003,-11.784273,-24.715435,,0,4,31.999672,,0.000000,0.000000,0.000000,,0,59.995506,0,89.999748,1,0.000000,0.000000,0.000000,9
274:07:05:23.275,,,,,,,-0.325610,11.764104,31.872569,,19898.677734,-49113532.000000,-49850512.000000,,,,-105.439697,90.000000,86.310799,,6,4,0.124999,,92388.453125,0.000000,0.000000,,0,0.230806,0,-44.168335,1,-28556.429688,0.000000,0.000000,9
274:07:05:23.338,,,,,,,-0.325610,11.764104,31.872716,,19891.177734,-30355138.000000,-63053680.000000,,,,15.890453,-10.709766,-24.315725,,6,7,0.124999,,92388.453125,0.000000,0.000000,,0,0.230806,0,-44.168335,1,-28556.429688,0.000000,0.000000,9
274:07:05:23.401,,,,,,,-0.325610,11.764104,31.872883,,19882.267578,-29456178.000000,-63478512.000000,,,,14.686825,-10.085046,-24.165985,,6,4,0.124999,,92388.453125,0.000000,0.000000,,0,0.230806,0,-44.168335,1,-28556.429688,0.000000,0.000000,9
274:07:05:23.464,,,,,,,-0.325610,11.764104,31.873027,,19874.498047,-29462846.000000,-63475316.000000,,,,14.371336,-9.584594,-24.037571,,6,4,0.124999,,92388.453125,0.000000,0.000000,,0,0.230806,0,-44.168335,1,-28556.429688,0.000000,0.000000,9
274:07:05:23.527,,,,,,,-0.325610,11.764104,31.873194,,19865.291016,-29463114.000000,-63475092.000000,,,,14.041843,-9.085387,-23.883465,,6,4,0.124999,,92388.453125,0.000000,0.000000,,0,0.230806,0,-44.168335,1,-28556.429688,0.000000,0.000000,9
274:07:05:23.590,,,,,,,-0.325610,11.764104,31.873341,,19857.275391,-30371950.000000,-63045188.000000,,,,14.618213,-8.737257,-23.719004,,6,4,0.124999,,92388.453125,0.000000,0.000000,,0,0.230806,0,-44.168335,1,-28556.429688,0.000000,0.000000,9
274:07:05:23.653,,,,,,,-0.325610,11.764104,31.873484,,19849.150391,-30372574.000000,-63044792.000000,,,,14.398520,-8.445411,-23.459255,,6,4,0.124999,,92388.453125,0.000000,0.000000,,0,0.230806,0,-44.168335,1,-28556.429688,0.000000,0.000000,9
274:07:05:23.716,,,,,,,-0.325610,11.764104,31.873628,,19840.912109,-30374172.000000,-63043920.000000,,,,14.180823,-8.156678,-23.080770,,6,4,0.124999,,92388.453125,0.000000,0.000000,,0,0.230806,0,-44.168335,1,-28556.429688,0.000000,0.000000,9
274:07:05:23.779,,,,,,,-0.325610,11.764104,31.873771,,19832.556641,-29468312.000000,-63472308.000000,,,,13.126035,-7.822114,-22.588902,,6,4,0.124999,,92388.453125,0.000000,0.000000,,0,0.230806,0,-44.168335,1,-28556.429688,0.000000,0.000000,9
274:07:05:23.842,,,,,,,-0.325610,11.764104,31.873938,,19822.660156,-29471198.000000,-63470856.000000,,,,12.810858,-7.280321,-21.921391,,6,4,0.124999,,92388.453125,0.000000,0.000000,,0,0.230806,0,-44.168335,1,-28556.429688,0.000000,0.000000,9
274:07:05:23.905,,,,,,,-0.325610,11.764104,31.874085,,19814.046875,-30381816.000000,-63039944.000000,,,,13.305927,-6.634458,-21.319508,,6,4,0.124999,,92388.453125,0.000000,0.000000,,0,0.230806,0,-44.168335,1,-28556.429688,0.000000,0.000000,9
274:07:05:23.968,,,,,,,-0.325610,11.764104,31.874253,,19803.849609,-29473692.000000,-63469504.000000,,,,12.032079,-5.634943,-20.671816,,6,4,0.124999,,92388.453125,0.000000,0.000000,,0,0.230806,0,-44.168335,1,-28556.429688,0.000000,0.000000,9
274:07:05:24.031,,,,,,,-0.325610,11.764104,31.874396,,19794.986328,-30379500.000000,-63040864.000000,,,,12.407677,-4.564894,-20.206890,,6,4,0.124999,,92388.453125,0.000000,0.000000,,0,0.230806,0,-44.168335,1,-28556.429688,0.000000,0.000000,9
274:07:05:24.094,,,,,,,-0.325610,11.764104,31.874539,,19786.015625,-30372406.000000,-63044184.000000,,,,11.901274,-3.312234,-19.842789,,6,4,0.124999,,92388.453125,0.000000,0.000000,,0,0.230806,0,-44.168335,1,-28556.429688,0.000000,0.000000,9
274:07:05:24.157,,,,,,,-0.325610,11.764104,31.874683,,19776.955078,-29451072.000000,-63479732.000000,,,,10.541172,-1.929901,-19.575312,,6,4,0.124999,,92388.453125,0.000000,0.000000,,0,0.230806,0,-44.168335,1,-28556.429688,0.000000,0.000000,9
274:07:05:24.220,,,,,,,-0.325610,11.764104,31.874850,,19766.281250,-29424780.000000,-63491812.000000,,,,9.926914,-0.243921,-19.371298,,6,4,0.124999,,92388.453125,-1550.375000,-112.000000,,0,0.230806,0,-44.168335,1,-28556.429688,0.000000,0.000000,9
274:07:05:24.283,,,,,,,-0.325610,11.764104,31.874994,,19757.068359,-29397754.000000,-63504228.000000,,,,9.443022,1.207887,-19.280914,,6,4,0.124999,,92388.453125,0.000000,0.000000,,0,0.230806,0,-44.168335,1,-28556.429688,0.000000,0.000000,9
274:07:05:24.345,,,,,,,-0.325610,11.764104,31.875137,,19747.808594,-29365984.000000,-63518844.000000,,,,9.001691,2.603849,-19.261433,,6,4,0.124999,,92388.453125,0.000000,0.000000,,0,0.230806,0,-44.168335,1,-28556.429688,0.000000,0.000000,9
274:07:05:24.408,,,,,,,-0.325610,11.764104,31.875308,,19736.974609,-29323756.000000,-63538244.000000,,,,8.547424,4.027344,-19.227489,,6,4,0.124999,,92388.453125,0.000000,0.000000,,0,0.230806,0,-44.168335,1,-28556.429688,0.000000,0.000000,9
274:07:05:24.471,,,,,,,-0.325610,11.764104,31.875451,,19727.677734,-29285486.000000,-63555796.000000,,,,8.205546,5.015627,-19.102739,,6,4,0.124999,,92388.453125,0.000000,0.000000,,0,0.230806,0,-44.168335,1,-28556.429688,0.000000,0.000000,9
274:07:05:24.534,,,,,,,-0.325610,128.957520,31.875595,,19718.378906,46671.281250,-733.131958,,,,7.893407,5.838193,-18.839458,,0,4,31.999672,,0.000000,0.000000,0.000000,,0,59.995506,0,89.999748,1,0.000000,0.000000,0.000000,9
274:07:05:24.597,,,,,,,-0.325610,128.957520,31.875738,,19709.076172,46617.699219,-700.862305,,,,7.616805,6.567063,-18.532444,,0,4,31.999672,,0.000000,0.000000,0.000000,,0,59.995506,0,89.999748,1,0.000000,0.000000,0.000000,9
274:07:05:24.660,,,,,,,-0.325610,128.957520,31.875905,,19698.224609,46554.976563,-661.158569,,,,7.355829,7.320127,-18.278967,,0,4,31.999672,,0.000000,0.000000,0.000000,,0,59.995506,0,89.999748,1,0.000000,0.000000,0.000000,9
274:07:05:24.723,,,,,,,-0.325610,128.957520,31.876049,,19688.939453,46501.398438,-624.951721,,,,7.188736,7.861145,-18.160921,,0,4,31.999672,,0.000000,0.000000,0.000000,,0,59.995506,0,89.999748,1,0.000000,0.000000,0.000000,9
274:07:05:24.786,,,,,,,-0.325610,128.957520,31.876216,,19678.125000,46438.906250,-582.525330,,,,7.053223,8.360920,-18.113165,,0,4,31.999672,,0.000000,0.000000,0.000000,,0,59.995506,0,89.999748,1,0.000000,0.000000,0.000000,9
274:07:05:24.849,,,,,,,-0.325610,128.957520,31.876360,,19668.878906,46372.398438,-1211.756592,,,,7.801922,8.700377,-18.073275,,0,4,31.999672,,0.000000,0.000000,0.000000,,0,59.995506,0,89.999748,1,0.000000,0.000000,0.000000,9
274:07:05:24.912,,,,,,,-0.325610,128.957520,31.876503,,19659.652344,46331.335938,-511.547485,,,,6.927717,8.972399,-18.015495,,0,4,31.999672,,0.000000,0.000000,0.000000,,0,59.995506,0,89.999748,1,0.000000,0.000000,0.000000,9
274:07:05:24.975,,,,,,,-0.325610,128.957520,31.876647,,-85592.531250,-36980.320313,-27828.029297,,,,-116.165146,90.000000,-0.119736,,0,4,31.999672,,0.000000,0.000000,0.000000,,0,59.995506,0,89.999748,1,0.000000,0.000000,0.000000,9
274:07:05:25.038,,,,,,,-0.325610,128.957520,31.876790,,19641.267578,46212.812500,-1104.813721,,,,7.645146,9.411852,-17.841654,,0,4,31.999672,,0.000000,0.000000,0.000000,,0,59.995506,0,89.999748,1,0.000000,0.000000,0.000000,9
274:07:05:25.101,,,,,,,-0.325610,128.957520,31.876957,,19630.585938,46150.773438,-1061.648560,,,,7.594258,9.630842,-17.719357,,0,4,31.999672,,0.000000,0.000000,0.000000,,0,59.995506,0,89.999748,1,0.000000,0.000000,0.000000,9
274:07:05:25.164,,,,,,,-0.325610,11.764104,13.631857,,-91098.328125,42900748.000000,10693707.000000,,,,51.157665,15.705512,-110.123924,,0,4,31.999672,,0.000000,0.000000,0.000000,,0,59.995506,0,89.999748,1,0.000000,0.000000,0.000000,9
274:07:05:25.227,,,,,,,-0.325610,11.764104,31.877265,,19610.839844,46045.945313,-322.651917,,,,6.709515,9.942015,-17.559729,,0,4,31.999672,,0.000000,0.000000,0.000000,,0,59.995506,0,89.999748,1,0.000000,0.000000,0.000000,9
274:07:05:25.290,,,,,,,-0.325610,11.764104,31.877384,,19603.283203,46001.042969,-293.262482,,,,6.687568,10.031162,-17.520647,,0,4,31.999672,,0.000000,384.000000,0.000000,,0,59.995506,0,89.999748,1,0.000000,0.000000,0.000000,9
274:07:05:25.353,,,,,,,-0.325610,11.764104,31.877552,,19592.732422,45938.503906,-251.870560,,,,6.656905,10.123206,-17.475456,,0,4,31.999672,,0.000000,0.000000,0.000000,,0,59.995506,0,89.999748,1,0.000000,0.000000,0.000000,9
274:07:05:25.416,,,,,,,-0.325610,11.764104,31.877695,,19583.718750,45884.613281,-217.257355,,,,6.627290,10.178632,-17.460176,,0,4,31.999672,,0.000000,0.000000,0.000000,,0,59.995506,0,89.999748,1,0.000000,0.000000,0.000000,9
274:07:05:25.479,,,,,,,-0.325610,11.764104,31.877835,,19574.736328,45831.898438,-183.340881,,,,6.588773,10.224581,-17.432232,,0,4,31.999672,,0.000000,0.000000,0.000000,,0,59.995506,0,89.999748,1,0.000000,0.000000,0.000000,9
274:07:05:25.542,,,,,,,-0.325610,11.764104,31.878002,,19564.291016,45769.007813,-142.133911,,,,6.543531,10.268885,-17.391310,,0,4,31.999672,,0.000000,0.000000,0.000000,,0,59.995506,0,89.999748,1,0.000000,0.000000,0.000000,9
274:07:05:25.605,,,,,,,-0.325610,11.764104,31.878146,,19555.365234,45715.289063,-107.326042,,,,6.503535,10.315207,-17.364761,,0,4,31.999672,,0.000000,0.000000,0.000000,,0,59.995506,0,89.999748,1,0.000000,0.000000,0.000000,9
274:07:05:25.668,,,,,,,-0.325610,11.764104,31.878310,,19544.986328,45653.539063,-67.911720,,,,6.456253,10.361557,-17.368021,,0,4,31.999672,,0.000000,0.000000,0.000000,,0,59.995506,0,89.999748,1,0.000000,0.000000,0.000000,9
274:07:05:25.731,,,,,,,-0.325610,11.764104,31.878453,,19536.119141,45599.765625,-32.787926,,,,6.416498,10.399081,-17.388945,,0,4,31.999672,,0.000000,0.000000,0.000000,,0,59.995506,0,89.999748,1,0.000000,0.000000,0.000000,9
274:07:05:25.794,,,,,,,0.884745,11.764104,31.878597,,19527.281250,45545.707031,1.747334,,,,6.383296,10.420773,-17.376089,,0,4,31.999672,,0.000000,0.000000,0.000000,,0,59.995506,0,89.999748,1,0.000000,0.000000,0.000000,9
274:07:05:25.857,,,,,,,0.884745,11.764104,31.878737,,19518.468750,45493.093750,35.978210,,,,6.348217,10.446644,-17.368845,,0,4,31.999672,,0.000000,880.000000,0.000000,,0,59.995506,0,89.999748,1,0.000000,0.000000,0.000000,9
274:07:05:25.920,,,,,,,0.884745,11.764104,31.878904,,19508.220703,45430.261719,76.259178,,,,6.297673,10.477985,-17.357460,,0,4,31.999672,,0.000000,0.000000,0.000000,,0,59.995506,0,89.999748,1,0.000000,0.000000,0.000000,9
274:07:05:25.983,,,,,,,0.884745,11.764104,31.879044,,19499.466797,45377.328125,109.740120,,,,6.253813,10.512689,-17.341467,,0,4,31.999672,,0.000000,0.000000,0.000000,,0,59.995506,0,89.999748,1,0.000000,0.000000,0.000000,9
274:07:05:26.046,,,,,,,0.884745,11.764104,31.879211,,19489.283203,45314.437500,150.704819,,,,6.202930,10.552809,-17.317696,,0,4,31.999672,,0.000000,0.000000,0.000000,,0,59.995506,0,89.999748,1,0.000000,0.000000,0.000000,9
274:07:05:26.109,,,,,,,0.884745,11.764104,31.879351,,19480.582031,45261.710938,184.697693,,,,6.165596,10.584500,-17.300589,,0,4,31.999672,,0.000000,0.000000,0.000000,,0,59.995506,0,89.999748,1,0.000000,0.000000,0.000000,9
274:07:05:26.172,,,,,,,0.884745,11.764104,31.879495,,19471.910156,45207.742188,219.186615,,,,6.126000,10.619226,-17.272160,,0,4,31.999672,,0.000000,0.000000,0.000000,,0,59.995506,0,89.999748,1,0.000000,0.000000,0.000000,9
274:07:05:26.235,,,,,,,0.884745,11.764104,31.879635,,19463.259766,45154.960938,253.395401,,,,6.095004,10.657105,-17.235409,,0,4,31.999672,,0.000000,0.000000,0.000000,,0,59.995506,0,89.999748,1,0.000000,0.000000,0.000000,9
274:07:05:26.298,,,,,,,0.884745,11.764104,31.879778,,19454.638672,45100.949219,287.419189,,,,6.065273,10.691154,-17.209417,,0,4,31.999672,,0.000000,0.000000,0.000000,,0,59.995506,0,89.999748,1,0.000000,0.000000,0.000000,9
274:07:05:26.361,,,,,,,0.884745,11.764104,31.879942,,19444.611328,45039.105469,326.906250,,,,6.020936,10.731385,-17.193415,,0,4,31.999672,,0.000000,0.000000,0.000000,,0,59.995506,0,89.999748,1,0.000000,0.000000,0.000000,9
274:07:05:26.424,,,,,,,0.884745,11.764104,31.880082,,19436.042969,44986.769531,-287.451355,,,,6.812346,10.760225,-17.199203,,0,4,31.999672,,0.000000,0.000000,0.000000,,0,59.995506,0,89.999748,1,0.000000,0.000000,0.000000,9
274:07:05:26.487,,,,,,,0.884745,11.764104,31.880246,,19426.078125,44925.437500,-247.935349,,,,6.768998,10.801292,-17.177355,,0,4,31.999672,,0.000000,0.000000,0.000000,,0,59.995506,0,89.999748,1,0.000000,0.000000,0.000000,9
274:07:05:26.550,,,,,,,0.884745,11.764104,31.880389,,19417.562500,44870.230469,431.965332,,,,5.907529,10.839348,-17.166468,,0,4,31.999672,,0.000000,0.000000,0.000000,,0,59.995506,0,89.999748,1,0.000000,0.000000,0.000000,9
274:07:05:26.613,,,,,,,0.884745,11.764104,31.880529,,19409.074219,44817.292969,465.071014,,,,5.865876,10.877739,-17.153133,,0,4,31.999672,,0.000000,0.000000,0.000000,,0,59.995506,0,89.999748,1,0.000000,0.000000,0.000000,9
274:07:05:26.676,,,,,,,0.884745,11.764104,31.880670,,19400.607422,44764.335938,498.007416,,,,5.823353,10.916286,-17.128078,,0,4,31.999672,,0.000000,0.000000,0.000000,,0,59.995506,0,89.999748,1,0.000000,0.000000,0.000000,9
274:07:05:26.739,,,,,,,0.884745,11.764104,31.880810,,19392.166016,44711.585938,532.973816,,,,5.785569,10.953491,-17.102020,,0,4,31.999672,,0.000000,0.000000,0.000000,,0,59.995506,0,89.999748,1,0.000000,0.000000,0.000000,9
274:07:05:26.802,,,,,,,0.884745,11.764104,31.880977,,19382.349609,44648.339844,570.342896,,,,5.738326,11.001894,-17.040865,,0,4,31.999672,,0.000000,0.000000,0.000000,,0,59.995506,0,89.999748,1,0.000000,0.000000,0.000000,9
274:07:05:26.865,,,,,,,0.884745,11.764104,31.881117,,19373.962891,44595.296875,603.788391,,,,5.701996,11.048967,-17.007950,,0,4,31.999672,,0.000000,0.000000,0.000000,,0,59.995506,0,89.999748,1,0.000000,0.000000,0.000000,9
274:07:05:26.928,,,,,,,0.884745,11.764104,31.881281,,19364.205078,44533.425781,643.037659,,,,5.666937,11.096314,-16.986628,,0,4,31.999672,,0.000000,0.000000,0.000000,,0,59.995506,0,89.999748,1,0.000000,0.000000,0.000000,9
274:07:05:26.990,,,,,,,0.884745,11.764104,31.881421,,19355.871094,44480.363281,674.225281,,,,5.633286,11.124267,-16.977360,,0,4,31.999672,,0.000000,0.000000,0.000000,,0,59.995506,0,89.999748,1,0.000000,0.000000,0.000000,9
274:07:05:27.053,,,,,,,0.884745,11.764104,31.881561,,19347.560547,44427.484375,708.187317,,,,5.600561,11.152377,-16.975189,,0,4,31.999672,,0.000000,0.000000,0.000000,,0,59.995506,0,89.999748,1,0.000000,0.000000,0.000000,9
274:07:05:27.116,,,,,,,0.884745,11.764104,31.881701,,19339.273438,44374.613281,740.208923,,,,5.569197,11.177197,-16.949287,,0,4,31.999672,,0.000000,0.000000,0.000000,,0,59.995506,0,89.999748,1,0.000000,0.000000,0.000000,9
274:07:05:27.179,,,,,,,0.884745,11.764104,31.881841,,19331.009766,44321.445313,773.009888,,,,5.535869,11.207916,-16.907696,,0,4,31.999672,,0.000000,0.000000,0.000000,,0,59.995506,0,89.999748,1,0.000000,0.000000,0.000000,9
274:07:05:27.242,,,,,,,0.884745,11.764104,31.882005,,19321.400391,44259.449219,810.920593,,,,5.501006,11.238746,-16.857342,,0,4,31.999672,,0.000000,720.000000,0.000000,,0,59.995506,0,89.999748,1,0.000000,0.000000,0.000000,9
274:07:05:27.305,,,,,,,0.884745,11.764104,31.882145,,19313.187500,44214.039063,209.064346,,,,6.287216,11.268973,-16.819685,,0,4,31.999672,,0.000000,0.000000,0.000000,,0,59.995506,0,89.999748,1,0.000000,0.000000,0.000000,9
274:07:05:27.368,,,,,,,0.884745,11.764104,31.882309,,19303.634766,44144.429688,881.071960,,,,5.426161,11.299720,-16.756548,,0,4,31.999672,,0.000000,0.000000,0.000000,,0,59.995506,0,89.999748,1,0.000000,0.000000,0.000000,9
274:07:05:27.431,,,,,,,0.884745,11.764104,31.882449,,19295.474609,44091.171875,912.811829,,,,5.397175,11.328510,-16.708315,,0,4,31.999672,,0.000000,0.000000,0.000000,,0,59.995506,0,89.999748,1,0.000000,0.000000,0.000000,9
274:07:05:27.494,,,,,,,0.884745,11.764104,31.882589,,19287.335938,44038.140625,945.360901,,,,5.377853,11.351968,-16.681261,,0,4,31.999672,,0.000000,0.000000,0.000000,,0,59.995506,0,89.999748,1,0.000000,0.000000,0.000000,9
274:07:05:27.557,,,,,,,0.884745,11.764104,31.882725,,19279.218750,43986.292969,977.074707,,,,5.358250,11.371275,-16.657043,,0,4,31.999672,,0.000000,0.000000,0.000000,,0,59.995506,0,89.999748,1,0.000000,0.000000,0.000000,9
274:07:05:27.620,,,,,,,0.884745,11.764104,31.882889,,19269.781250,43924.140625,1013.915100,,,,5.334218,11.382990,-16.624762,,0,4,31.999672,,0.000000,0.000000,0.000000,,0,59.995506,0,89.999748,1,0.000000,0.000000,0.000000,9
274:07:05:27.683,,,,,,,0.884745,11.764104,31.883029,,19261.712891,43871.066406,1044.343750,,,,5.302884,11.402960,-16.602835,,0,4,31.999672,,0.000000,0.000000,0.000000,,0,59.995506,0,89.999748,1,0.000000,0.000000,0.000000,9
274:07:05:27.746,,,,,,,0.884745,11.764104,31.883169,,19253.667969,43817.957031,1075.607544,,,,5.269039,11.422482,-16.573666,,0,4,31.999672,,0.000000,0.000000,0.000000,,0,59.995506,0,89.999748,1,0.000000,0.000000,0.000000,9
274:07:05:27.809,,,,,,,0.884745,11.764104,31.883330,,19244.308594,43757.175781,1112.496826,,,,5.234556,11.446855,-16.541290,,0,4,31.999672,,0.000000,0.000000,0.000000,,0,59.995506,0,89.999748,1,0.000000,0.000000,0.000000,9
274:07:05:27.872,,,,,,,0.884745,11.764104,31.883470,,19236.310547,43704.019531,1143.393921,,,,5.199071,11.464212,-16.506439,,0,4,31.999672,,0.000000,0.000000,0.000000,,0,59.995506,0,89.999748,1,0.000000,0.000000,0.000000,9
274:07:05:27.935,,,,,,,0.884745,11.764104,32.353421,,-103231.976563,46511288.000000,-32090708.000000,,,,-92.793137,-90.000000,43.534512,,0,4,31.999672,,0.000000,-1535.437500,-1248.000000,,0,59.995506,0,89.999748,1,0.000000,0.000000,0.000000,9
274:07:05:27.998,,,,,,,0.884745,11.764104,31.883747,,19220.376953,43598.859375,1204.575562,,,,5.130279,11.518978,-16.449520,,0,4,31.999672,,0.000000,0.000000,0.000000,,0,59.995506,0,89.999748,1,0.000000,0.000000,0.000000,9
274:07:05:28.061,,,,,,,0.884745,11.764104,31.883910,,19211.119141,43536.773438,1240.743652,,,,5.090123,11.546654,-16.411819,,0,4,31.999672,,0.000000,0.000000,0.000000,,0,59.995506,0,89.999748,1,0.000000,0.000000,0.000000,9
274:07:05:28.124,,,,,,,0.884745,11.764104,177.383360,,-49478.792969,-51378368.000000,84812440.000000,,,,-31.916529,-90.000000,-68.051880,,0,4,31.999672,,0.000000,0.000000,0.000000,,0,59.995506,0,89.999748,1,0.000000,0.000000,0.000000,9
274:07:05:28.187,,,,,,,0.884745,11.764104,31.884211,,19194.005859,43436.632813,683.303040,,,,5.840647,11.579832,-16.390280,,0,4,31.999672,,0.000000,0.000000,0.000000,,0,59.995506,0,89.999748,1,0.000000,0.000000,0.000000,9
274:07:05:28.250,,,,,,,0.884745,11.764104,31.884351,,19186.140625,43384.031250,715.250488,,,,5.811419,11.588818,-16.350397,,0,4,31.999672,,0.000000,0.000000,0.000000,,0,59.995506,0,89.999748,1,0.000000,0.000000,0.000000,9
274:07:05:28.313,,,,,,,0.884745,11.764104,31.884488,,19178.294922,43317.257813,1366.099731,,,,4.954613,11.604746,-16.328367,,6,4,31.999672,,0.000000,0.000000,0.000000,,0,59.995506,0,89.999748,1,0.000000,0.000000,0.000000,9
274:07:05:28.376,,,,,,,0.884745,11.764104,31.884628,,19170.468750,43264.203125,1395.939819,,,,4.916851,11.622358,-16.295610,,6,4,31.999672,,0.000000,0.000000,0.000000,,0,59.995506,0,89.999748,1,0.000000,0.000000,0.000000,9
274:07:05:28.439,,,,,,,0.884745,11.764104,31.884764,,19162.662109,43212.078125,1425.435181,,,,4.879671,11.644370,-16.260584,,6,4,31.999672,,0.000000,0.000000,0.000000,,0,59.995506,0,89.999748,1,0.000000,0.000000,0.000000,9
274:07:05:28.502,,,,,,,0.884745,11.764104,31.884925,,19153.578125,43151.007813,1461.234009,,,,4.845317,11.669720,-16.235580,,6,4,31.999672,,0.000000,0.000000,0.000000,,0,59.995506,0,89.999748,1,0.000000,0.000000,0.000000,9
274:07:05:28.565,,,,,,,0.884745,11.764104,31.885065,,19145.814453,43097.890625,1490.699097,,,,4.814219,11.689670,-16.219168,,6,4,31.999672,,0.000000,0.000000,0.000000,,0,59.995506,0,89.999748,1,0.000000,0.000000,0.000000,9
274:07:05:28.628,,,,,,,0.884745,11.764104,31.885225,,19136.779297,43036.812500,1525.068726,,,,4.773729,11.704367,-16.191988,,6,4,31.999672,,0.000000,0.000000,0.000000,,0,59.995506,0,89.999748,1,0.000000,0.000000,0.000000,9
274:07:05:28.691,,,,,,,0.884745,11.764104,31.885362,,19129.054688,42984.660156,1552.564575,,,,4.731802,11.714828,-16.157486,,6,4,31.999672,,0.000000,0.000000,0.000000,,0,59.995506,0,89.999748,1,0.000000,0.000000,0.000000,9
274:07:05:28.754,,,,,,,0.884745,11.764104,31.885502,,19121.349609,42931.425781,1583.202881,,,,4.696725,11.735136,-16.106798,,6,4,31.999672,,0.000000,0.000000,0.000000,,0,59.995506,0,89.999748,1,0.000000,0.000000,0.000000,9
274:07:05:28.817,,,,,,,0.884745,11.764104,31.885638,,19113.662109,42879.421875,1612.779663,,,,4.669553,11.762042,-16.074490,,6,4,31.999672,,0.000000,0.000000,0.000000,,0,59.995506,0,89.999748,1,0.000000,0.000000,0.000000,9
274:07:05:28.880,,,,,,,0.884745,11.764104,31.885799,,19104.718750,42818.246094,1646.625610,,,,4.640402,11.779884,-16.035208,,6,4,31.999672,,0.000000,0.000000,0.000000,,0,59.995506,0,89.999748,1,0.000000,0.000000,0.000000,9
274:07:05:28.943,,,,,,,0.884745,11.764104,31.885936,,19097.072266,42766.210938,1675.684204,,,,4.615726,11.794381,-15.990191,,0,4,31.999672,,0.000000,0.000000,0.000000,,0,59.995506,0,89.999748,1,0.000000,0.000000,0.000000,9
274:07:05:29.006,,,,,,,0.884745,11.764104,31.886076,,19089.443359,42712.925781,1705.098389,,,,4.591857,11.801764,-15.945016,,0,4,31.999672,,0.000000,0.000000,0.000000,,0,59.995506,0,89.999748,1,0.000000,0.000000,0.000000,9
274:07:05:29.069,,,,,,,0.884745,11.764104,31.886236,,19080.566406,42651.750000,1737.041748,,,,4.560181,11.822369,-15.901472,,0,4,31.999672,,0.000000,0.000000,0.000000,,0,59.995506,0,89.999748,1,0.000000,0.000000,0.000000,9
274:07:05:29.132,,,,,,,0.884745,11.764104,31.886373,,19072.974609,42599.648438,1765.954956,,,,4.530445,11.841413,-15.878675,,0,4,31.999672,,0.000000,0.000000,0.000000,,0,59.995506,0,89.999748,1,0.000000,0.000000,0.000000,9
274:07:05:29.195,,,,,,,0.884745,11.764104,31.886509,,19065.400391,42547.558594,1794.108765,,,,4.500832,11.865873,-15.845826,,0,4,31.999672,,0.000000,0.000000,0.000000,,0,59.995506,0,89.999748,1,0.000000,0.000000,0.000000,9
274:07:05:29.258,,,,,,,0.884745,11.764104,31.886646,,19057.841797,42495.414063,1822.954834,,,,4.474907,11.888346,-15.838831,,0,4,31.999672,,0.000000,0.000000,0.000000,,0,59.995506,0,89.999748,1,0.000000,0.000000,0.000000,9
274:07:05:29.321,,,,,,,0.884745,11.764104,31.886806,,19049.048828,42434.101563,1855.640625,,,,4.454368,11.903165,-15.798944,,0,4,31.999672,,0.000000,0.000000,0.000000,,0,59.995506,0,89.999748,1,0.000000,0.000000,0.000000,9
274:07:05:29.384,,,,,,,0.884745,11.764104,31.886943,,19041.529297,42382.191406,1884.103027,,,,4.429899,11.904421,-15.762119,,0,4,31.999672,,0.000000,0.000000,0.000000,,0,59.995506,0,89.999748,1,0.000000,0.000000,0.000000,9
274:07:05:29.447,,,,,,,0.884745,11.764104,31.887104,,19032.779297,42320.855469,1915.979004,,,,4.394916,11.913448,-15.733500,,0,4,31.999672,,0.000000,0.000000,0.000000,,0,59.995506,0,89.999748,1,0.000000,0.000000,0.000000,9
274:07:05:29.510,,,,,,,0.884745,11.764104,31.887240,,19025.296875,42268.679688,1943.568237,,,,4.369557,11.918683,-15.682642,,0,4,31.999672,,0.000000,0.000000,0.000000,,0,59.995506,0,89.999748,1,0.000000,0.000000,0.000000,9
274:07:05:29.573,,,,,,,0.884745,11.764104,31.887377,,19017.830078,42216.750000,1970.948975,,,,4.342464,11.938145,-15.640969,,0,4,31.999672,,0.000000,0.000000,0.000000,,0,59.995506,0,89.999748,1,0.000000,0.000000,0.000000,9
274:07:05:29.635,,,,,,,0.884745,11.764104,31.887513,,19010.378906,42164.523438,1998.541382,,,,4.316428,11.951624,-15.616390,,0,4,31.999672,,0.000000,0.000000,0.000000,,0,59.995506,0,89.999748,1,0.000000,0.000000,0.000000,9
274:07:05:29.698,,,,,,,0.884745,11.764104,31.887650,,19002.945313,42112.304688,2025.607178,,,,4.287793,11.964268,-15.577662,,0,4,31.999672,,0.000000,0.000000,0.000000,,0,59.995506,0,89.999748,1,0.000000,0.000000,0.000000,9
274:07:05:29.761,,,,,,,0.884745,11.764104,31.887807,,18994.291016,42052.300781,2057.869141,,,,4.265474,11.977756,-15.518841,,0,4,31.999672,,0.000000,0.000000,0.000000,,0,59.995506,0,89.999748,1,0.000000,0.000000,0.000000,9
274:07:05:29.824,,,,,,,0.884745,11.764104,31.887944,,18986.890625,42000.324219,2084.389893,,,,4.237048,11.993780,-15.495391,,0,4,31.999672,,0.000000,0.000000,0.000000,,0,59.995506,0,89.999748,1,0.000000,0.000000,0.000000,9
274:07:05:29.887,,,,,,,0.884745,11.764104,31.888104,,18978.275391,41938.875000,2115.048340,,,,4.197717,12.009107,-15.470817,,0,4,31.999672,,0.000000,0.000000,0.000000,,0,59.995506,0,89.999748,1,0.000000,0.000000,0.000000,9
274:07:05:29.950,,,,,,,0.884745,11.764104,31.888241,,18970.906250,41886.796875,2142.775879,,,,4.168540,12.022719,-15.417700,,0,4,31.999672,,0.000000,0.000000,0.000000,,0,59.995506,0,89.999748,1,0.000000,0.000000,0.000000,9
274:07:05:30.013,,,,,,,0.884745,11.764104,31.888374,,18963.552734,41835.785156,2167.781006,,,,4.140131,12.034208,-15.388694,,0,4,31.999672,,0.000000,0.000000,0.000000,,0,59.995506,0,89.999748,1,0.000000,0.000000,0.000000,9
274:07:05:30.076,,,,,,,0.884745,11.764104,31.888511,,18956.212891,41783.675781,2195.242432,,,,-64.767975,90.000000,-146.922287,,0,4,31.999672,,0.000000,-1728.000000,0.000000,,0,59.995506,0,89.999748,1,0.000000,0.000000,0.000000,9
274:07:05:30.139,,,,,,,0.884745,11.764104,31.888647,,18948.888672,41731.562500,2222.271484,,,,4.079574,12.062872,-15.373373,,0,4,31.999672,,0.000000,0.000000,0.000000,,0,59.995506,0,89.999748,1,0.000000,0.000000,0.000000,9
274:07:05:30.202,,,,,,,0.884745,11.764104,31.888804,,18940.363281,41671.496094,2252.474121,,,,4.045199,12.064943,-15.374086,,0,4,31.999672,,0.000000,0.000000,0.000000,,0,59.995506,0,89.999748,1,0.000000,0.000000,0.000000,9
274:07:05:30.265,,,,,,,0.884745,11.764104,31.888941,,18933.068359,41619.117188,2278.823730,,,,4.015263,12.069481,-15.335216,,0,4,31.999672,,0.000000,0.000000,0.000000,,0,59.995506,0,89.999748,1,0.000000,0.000000,0.000000,9
274:07:05:30.328,,,,,,,0.884745,11.764104,31.889098,,18924.576172,41559.199219,2310.021484,,,,3.985163,12.082411,-15.271380,,0,4,31.999672,,0.000000,0.000000,0.000000,,0,59.995506,0,89.999748,1,0.000000,0.000000,0.000000,9
274:07:05:30.391,,,,,,,0.884745,11.764104,31.889235,,18917.312500,41506.824219,2335.609131,,,,3.963480,12.103081,-15.244431,,0,4,31.999672,,0.000000,0.000000,0.000000,,0,59.995506,0,89.999748,1,0.000000,0.000000,0.000000,9
274:07:05:30.454,,,,,,,0.884745,11.764104,31.889371,,18910.060547,41454.652344,2361.831299,,,,3.944708,12.112880,-15.209773,,0,4,31.999672,,0.000000,0.000000,0.000000,,0,59.995506,0,89.999748,1,0.000000,0.000000,0.000000,9
274:07:05:30.517,,,,,,,0.884745,11.764104,31.889504,,18902.822266,41403.667969,2388.120361,,,,3.922973,12.117464,-15.184992,,0,4,31.999672,,0.000000,0.000000,0.000000,,0,59.995506,0,89.999748,1,0.000000,0.000000,0.000000,9
274:07:05:30.580,,,,,,,0.884745,11.764104,31.889661,,18894.394531,41343.437500,2418.479248,,,,3.912015,12.116034,-15.117534,,0,4,31.999672,,0.000000,0.000000,0.000000,,0,59.995506,0,89.999748,1,0.000000,0.000000,0.000000,9
274:07:05:30.643,,,,,,,0.884745,11.764104,31.889798,,18887.183594,41291.281250,2443.354004,,,,3.899522,12.120202,-15.067512,,0,4,31.999672,,0.000000,0.000000,0.000000,,0,59.995506,0,89.999748,1,0.000000,0.000000,0.000000,9
274:07:05:30.706,,,,,,,0.884745,11.764104,31.889931,,18879.984375,41240.343750,2467.770020,,,,3.877900,12.122515,-15.036215,,0,4,31.999672,,0.000000,0.000000,0.000000,,0,59.995506,0,89.999748,1,0.000000,0.000000,0.000000,9
274:07:05:30.769,,,,,,,0.884745,11.764104,31.890088,,18871.599609,41180.308594,2498.062744,,,,3.844139,12.139716,-14.982292,,0,4,31.999672,,0.000000,0.000000,0.000000,,0,59.995506,0,89.999748,1,0.000000,0.000000,0.000000,9
274:07:05:30.832,,,,,,,0.884745,11.764104,31.890225,,18864.423828,41128.105469,2522.757080,,,,3.809941,12.157722,-14.935536,,0,4,31.999672,,0.000000,0.000000,0.000000,,0,59.995506,0,89.999748,1,0.000000,0.000000,0.000000,9
274:07:05:30.895,,,,,,,0.884745,11.764104,31.890358,,18857.261719,41077.019531,2548.680664,,,,3.777039,12.181061,-14.885282,,0,4,31.999672,,0.000000,0.000000,0.000000,,0,59.995506,0,89.999748,1,0.000000,0.000000,0.000000,9
274:07:05:30.958,,,,,,,0.884745,11.764104,31.890495,,18850.111328,41024.816406,2572.728516,,,,3.748667,12.192651,-14.862070,,0,4,31.999672,,0.000000,0.000000,0.000000,,0,59.995506,0,89.999748,1,0.000000,0.000000,0.000000,9
274:07:05:31.021,,,,,,,0.884745,11.764104,31.890652,,18841.779297,40964.710938,2602.676025,,,,3.717599,12.203321,-14.828335,,0,4,31.999672,,0.000000,0.000000,0.000000,,0,59.995506,0,89.999748,1,0.000000,0.000000,0.000000,9
274:07:05:31.084,,,,,,,0.884745,11.764104,31.890785,,18834.654297,40913.687500,2626.559814,,,,3.700838,12.209713,-14.797144,,0,4,31.999672,,0.000000,0.000000,0.000000,,0,59.995506,0,89.999748,1,0.000000,0.000000,0.000000,9
274:07:05:31.147,,,,,,,0.884745,11.764104,31.890942,,18826.353516,40853.621094,2655.076172,,,,3.683024,12.213120,-14.748755,,0,4,31.999672,,0.000000,0.000000,0.000000,,0,59.995506,0,89.999748,1,0.000000,0.000000,0.000000,9
274:07:05:31.210,,,,,,,0.884745,11.764104,31.891055,,18820.433594,40810.359375,2674.607422,,,,3.663615,12.208122,-14.714203,,0,4,31.999672,,0.000000,0.000000,0.000000,,0,59.995506,0,89.999748,1,0.000000,0.000000,0.000000,9
274:07:05:31.273,,,,,,,0.884745,11.764104,31.891208,,18812.158203,40751.480469,2702.877441,,,,3.631664,12.212121,-14.670908,,0,4,31.999672,,0.000000,0.000000,0.000000,,0,59.995506,0,89.999748,1,0.000000,0.000000,0.000000,9
274:07:05:31.336,,,,,,,0.884745,11.764104,31.891345,,18805.074219,40699.332031,2728.339844,,,,3.607548,12.217199,-14.626565,,0,4,31.999672,,0.000000,0.000000,0.000000,,0,59.995506,0,89.999748,1,0.000000,0.000000,0.000000,9
274:07:05:31.399,,,,,,,0.884745,11.764104,31.891478,,18798.000000,40648.191406,2752.567627,,,,3.591775,12.226111,-14.591313,,0,4,31.999672,,0.000000,0.000000,0.000000,,0,59.995506,0,89.999748,1,0.000000,0.000000,0.000000,9
274:07:05:31.462,,,,,,,0.884745,11.764104,31.891635,,18789.759766,40588.031250,2780.871582,,,,3.578796,12.235367,-14.553368,,0,4,31.999672,,0.000000,0.000000,0.000000,,0,59.995506,0,89.999748,1,0.000000,0.000000,0.000000,9
274:07:05:31.525,,,,,,,0.884745,11.764104,31.891769,,18782.705078,40536.894531,2804.449707,,,,3.570686,12.240490,-14.512198,,0,4,31.999672,,0.000000,0.000000,0.000000,,0,59.995506,0,89.999748,1,0.000000,0.000000,0.000000,9
274:07:05:31.588,,,,,,,0.884745,11.764104,31.891922,,18774.490234,40478.003906,2831.228516,,,,3.556690,12.231783,-14.477070,,0,4,31.999672,,0.000000,0.000000,0.000000,,0,59.995506,0,89.999748,1,0.000000,0.000000,0.000000,9
274:07:05:31.651,,,,,,,0.884745,11.764104,31.892055,,18767.457031,40427.101563,2854.753174,,,,3.532497,12.223481,-14.469374,,0,4,31.999672,,0.000000,0.000000,0.000000,,0,59.995506,0,89.999748,1,0.000000,0.000000,0.000000,9
274:07:05:31.714,,,,,,,0.884745,11.764104,31.892192,,18760.433594,40374.734375,2877.882813,,,,3.506317,12.216643,-14.439521,,0,4,31.999672,,0.000000,0.000000,0.000000,,0,59.995506,0,89.999748,1,0.000000,0.000000,0.000000,9
274:07:05:31.777,,,,,,,0.884745,11.764104,31.892325,,18753.417969,40323.777344,2901.646973,,,,3.473211,12.226338,-14.390402,,0,4,31.999672,,0.000000,0.000000,0.000000,,0,59.995506,0,89.999748,1,0.000000,0.000000,0.000000,9
274:07:05:31.840,,,,,,,0.884745,11.764104,31.892479,,18745.240234,40264.769531,2928.837646,,,,3.438363,12.245023,-14.345112,,0,4,31.999672,,0.000000,0.000000,0.000000,,0,59.995506,0,89.999748,1,0.000000,0.000000,0.000000,9
274:07:05:31.903,,,,,,,0.884745,11.764104,31.892612,,18738.242188,40213.726563,2953.242188,,,,3.407378,12.260365,-14.326651,,0,4,31.999672,,0.000000,0.000000,0.000000,,0,59.995506,0,89.999748,1,0.000000,0.000000,0.000000,9
274:07:05:31.966,,,,,,,0.884745,11.764104,31.892745,,18731.250000,40162.789063,2975.968750,,,,3.388218,12.267590,-14.319011,,0,4,31.999672,,0.000000,0.000000,0.000000,,0,59.995506,0,89.999748,1,0.000000,0.000000,0.000000,9
274:07:05:32.029,,,,,,,0.884745,11.764104,31.892878,,18724.267578,40111.558594,2998.843018,,,,3.370846,12.263922,-14.302030,,0,4,31.999672,,0.000000,0.000000,0.000000,,0,59.995506,0,89.999748,1,0.000000,0.000000,0.000000,9
